[
  {
    "Sites": "ALFRED",
    "Latitude": 14.733958,
    "Logitude": 121.0527,
    "Name": "Radius",
    "Road": "Quirino Highway",
    "City": "Quezon City",
    "District": "Eastern Manila District",
    "Address": "Quirino Highway, Quezon City, Eastern Manila District",
    "Devices": "ASR9901 (1)\nASR920 (1)",
    "Other Details": "ALFRED (BNG)\nNode: ALFRED-NR-ASR9901-BNG\nChassis: ASR9901\nSerial: FOC2242NKNN (ASR 9901 Chassis)\n\nAlfred (CEN)\nNode: ALFRED-NR-ASR92024SZ-10G-PE\nChassis: ASR920\nSerial: CAT1913V01Q (Chassis)"
  },
  {
    "Sites": "BLAX",
    "Latitude": 14.803141,
    "Logitude": 121.032535,
    "Name": "Radius",
    "Road": "Santa Maria - Tungkong Mangga Road",
    "City": "San Jose del Monte",
    "District": "Bulacan",
    "Address": "Santa Maria - Tungkong Mangga Road, San Jose del Monte, Bulacan",
    "Devices": "ASR9901 (1)\nASR920 (1)",
    "Other Details": "BLAX (BNG)\nNode: BLAX-NR-ASR9901-BNG\nChassis: ASR9901\nSerial: FOC2525N0X5 (ASR 9901 Chassis)\n\nBLAX (CEN)\nNode: BLAX-NR-ASR92024SZ-10G-PE\nChassis: ASR920\nSerial: FOC2502NC6Z (Chassis)"
  },
  {
    "Sites": "EMMANUEL",
    "Latitude": 14.566425,
    "Logitude": 121.076081,
    "Name": "Radius",
    "Road": "Dr. Sixto Antonio Avenue",
    "City": "Pasig",
    "District": "Eastern Manila District",
    "Address": "Dr. Sixto Antonio Avenue, Pasig, Eastern Manila District",
    "Devices": "ASR9901 (1)\nASR920 (1)",
    "Other Details": "EMMANUEL (BNG)\nNode: EMMANUEL-NR-ASR9901-BNG\nChassis: ASR9901\nSerial: FOC2525N16J (ASR 9901 RP )\n\nEMMANUEL (CEN)\nNode: EMMANUEL-NR-ASR92024SZ-10G-PE-I\nChassis: ASR920\nSerial: CAT2341V2P5 (Chassis)"
  },
  {
    "Sites": "IMACRON",
    "Latitude": 14.630506,
    "Logitude": 121.043953,
    "Name": "Radius",
    "Road": "Kamuning Road",
    "City": "Quezon City",
    "District": "Eastern Manila District",
    "Address": "Kamuning Road, Quezon City, Eastern Manila District",
    "Devices": "ASR9901 (1)\nASR920 (2)",
    "Other Details": "IMACRON (BNG)\nNode: IMACRON-NR-ASR9901-BNG\nChassis: ASR9901\nSerial: FOC2525N0Z4 (ASR 9901 Chassis)\n\nIMACRON (CEN)\nNode: IMACRON-NR-ASR92024SZ-10G-PE\nChassis: ASR920\nSerial: CAT1905V0RV (Chassis)\n\nIMACRON (CEN)\nNode: IMACRON-NR-ASR92024SZ-10G-PE-II\nChassis: ASR920\nSerial: FOC2617R7BY (Chassis)"
  },
  {
    "Sites": "KINGSWOOD",
    "Latitude": 14.567204,
    "Logitude": 121.012236,
    "Name": "Radius",
    "Road": "Mola Street",
    "City": "Makati",
    "District": "Southern Manila District",
    "Address": "Mola Street, Makati, Southern Manila District",
    "Devices": "ASR9901 (1)",
    "Other Details": "KINGSWOOD (BNG)\nNode: KINGSWOOD-NR-ASR9901-BNG\nChassis: ASR9901\nSerial: FOC2525N16L (ASR 9901 Chassis)"
  },
  {
    "Sites": "PARAMOUNT",
    "Latitude": 14.58848,
    "Logitude": 121.108294,
    "Name": "Radius",
    "Road": "Ortigas Avenue Extension",
    "City": "Pasig",
    "District": "Eastern Manila District",
    "Address": "Ortigas Avenue Extension, Pasig, Eastern Manila District",
    "Devices": "ASR9901 (1)\nASR920 (2)",
    "Other Details": "PARAMOUNT (BNG)\nNode: PARAMOUNT-NR-ASR9901-BNG\nChassis: ASR9901\nSerial: FOC2525N0Z5 (ASR 9901 Chassis)\n\nPARAMOUNT (CEN)\nNode: PARAMOUNT-NR-ASR92024SZ-10G-PE\nChassis: ASR920\nSerial: FOC2502NC68 (Chassis)\n\nPARAMOUNT (CEN)\nNode: PARAMOUNT-NR-ASR92024SZ-10G-PE-II\nChassis: ASR920\nSerial: FOC2617R7BP (Chassis)"
  },
  {
    "Sites": "RBC",
    "Latitude": 14.589801,
    "Logitude": 121.067739,
    "Name": "Radius",
    "Road": "L. Gardner Road",
    "City": "Pasig",
    "District": "Eastern Manila District",
    "Address": "L. Gardner Road, Pasig, Eastern Manila District",
    "Devices": "ASR9901 (1)\nASR920 (1)\nASR9010 (1)\nONS15454 (1)",
    "Other Details": "RBC (BNG)\nNode: RBC-NR-ASR9901-BNG\nChassis: ASR9901\nSerial: FOC2525N0XU (ASR 9901 Chassis)\n\nRBC (CEN)\nNode: RBC-NR-ASR92024SZ-10G-PE-II\nChassis: ASR920\nSerial: CAT2341V2S6 (Chassis)\n\nRBC (CEN CORE)\nNode: RBC-NPE-1.RADIUS.ph.3.3.3.4\nChassis: ASR9010\nSerial: FOC2340NC8X (A9K-RSP880-LT-SE )\n\nRBC (DWDM)\nNode: RBC\nChassis: ONS15454\nSerial: SAL1444YCDF (Chassis)"
  },
  {
    "Sites": "ROB DASMA",
    "Latitude": 14.300044,
    "Logitude": 120.954093,
    "Name": "Radius",
    "Road": "Aguinaldo Highway",
    "City": "Dasmariñas",
    "District": "Cavite",
    "Address": "Aguinaldo Highway, Dasmariñas, Cavite",
    "Devices": "ASR9901 (1)\nASR920 (1)\nNCS55A2 (1)",
    "Other Details": "ROBDASMA (BNG)\nNode: ROBDASMA-NR-ASR9901-BNG\nChassis: ASR9901\nSerial: FOC2525N16W (ASR 9901 Chassis)\n\nROB_DASMA (CEN)\nNode: ROB_DASMA-NR-ASR92024SZ-10G-PE-II\nChassis: ASR920\nSerial: FOC2617R7AG (Chassis)\n\nROB DASMA (CEN)\nNode: ROB_DASMA-NR-NCS55A2-40G-PE-I\nChassis: NCS55A2\nSerial: FOC23255875 (NCS-55A2-MOD-SE-S)"
  },
  {
    "Sites": "SAFETYNET",
    "Latitude": 14.667148,
    "Logitude": 121.032879,
    "Name": "Radius",
    "Road": "Congressional Avenue",
    "City": "Quezon City",
    "District": "Eastern Manila District",
    "Address": "Congressional Avenue, Quezon City, Eastern Manila District",
    "Devices": "ASR9901 (1)\nASR920 (2)\nASR9010 (1)\nNCS2006-SA (1)",
    "Other Details": "SAFETYNET (BNG)\nNode: SAFETYNET-NR-ASR9901-BNG\nChassis: ASR9901\nSerial: FOC2516N09A (ASR 9901 Chassis)\n\nSFN (CEN)\nNode: SFN-NR-ASR92024SZ-10G-PE-II\nChassis: ASR920\nSerial: FOC2502NC4E (Chassis)\n\nSFN (CEN)\nNode: SFN-NR-ASR92024SZ-10G-PE-III\nChassis: ASR920\nSerial: FOC2617R7C4 (Chassis)\n\nSAFETYNET (CEN CORE)\nNode: SFN-NPE-1.RADIUS.ph.3.3.3.2\nChassis: ASR9010\nSerial: FOC2336NFTJ (A9K-RSP880-LT-SE)\n\nSFN (DWDM)\nNode: SFN\nChassis: NCS2006-SA\nSerial: FIW1909009 (40-SMR2-C)"
  },
  {
    "Sites": "TIM CARMONA",
    "Latitude": 14.313214,
    "Logitude": 121.053297,
    "Name": "Radius",
    "Road": "Purificacion Street",
    "City": "Carmona",
    "District": "Cavite",
    "Address": "Purificacion Street, Carmona, Cavite",
    "Devices": "ASR9901 (1)\nASR920 (2)\nNCS540 (1)\nNCS2006-SA (1)",
    "Other Details": "TIM (BNG)\nNode: TIM-NR-ASR9901-BNG\nChassis: ASR9901\nSerial: FOC2625PTY6 (ASR 9901 Chassis)\n\nTIM CARMONA (CEN)\nNode: TIMCARMONA-DC-ASR92024SZ-10G-PE\nChassis: ASR920\nSerial: CAT1920V06P (Chassis)\n\nTIM CARMONA (CEN)\nNode: TIMCARMONA-DC-ASR92024SZ-10G-PE-II\nChassis: ASR920\nSerial: CAT2341V2KT (Chassis)\n\nTIM CARMONA (CEN)\nNode: TIMCARMONA-DC-NCS540-40G-PE-III\nChassis: NCS540\nSerial: FOC2309PK6C (Chassis)\n\nTIM (DWDM)\nNode: TIM\nChassis: NCS2006-SA\nSerial: SAL204100EC (Chassis)"
  },
  {
    "Sites": "UPTOWN",
    "Latitude": 14.555993,
    "Logitude": 121.055188,
    "Name": "Radius",
    "Road": "11th Avenue",
    "City": "Taguig",
    "District": "Southern Manila District",
    "Address": "11th Avenue, Taguig, Southern Manila District",
    "Devices": "ASR9901 (1)\nASR920 (1)",
    "Other Details": "UPTOWN (BNG)\nNode: UPTOWN-NR-ASR9901-BNG\nChassis: ASR9901\nSerial: FOC2525N16V (ASR 9901 Chassis)\n\nUPTOWN (CEN)\nNode: UPTOWN-NR-ASR92024SZ-10G-PE\nChassis: ASR920\nSerial: FOC2617R7D8 (Chassis)"
  },
  {
    "Sites": "VITRO-CEBU",
    "Latitude": 10.336831,
    "Logitude": 123.930577,
    "Name": "Radius",
    "Road": "A. S. Fortuna Street",
    "City": "Mandaue",
    "District": "Cebu",
    "Address": "A. S. Fortuna Street, Mandaue, Cebu",
    "Devices": "ASR9901 (1)",
    "Other Details": "VITRO-CEBU (BNG)\nNode: VITRO-CEBU-NR-ASR9901-BNG\nChassis: ASR9901\nSerial: FOC2525N0W6 (ASR 9901 Chassis)"
  },
  {
    "Sites": "ZEN",
    "Latitude": 14.590483,
    "Logitude": 120.983858,
    "Name": "Radius",
    "Road": "Natividad Lopez Street",
    "City": "Manila",
    "District": "Capital District",
    "Address": "Natividad Lopez Street, Manila, Capital District",
    "Devices": "ASR9901 (1)\nASR920 (1)\nASR9010 (1)\nONS15454 (1)",
    "Other Details": "ZEN-TOWER (BNG)\nNode: ZEN-TOWER-NR-ASR9901-BNG\nChassis: ASR9901\nSerial: FOC2432PFQ1 (ASR 9901 Chassis)\n\nZEN (CEN)\nNode: ZEN-NR-ASR92024SZ-10G-PE\nChassis: ASR920\nSerial: CAT2341V2RH (Chassis)\n\nZEN (CEN CORE)\nNode: ZNT-NPE-1.RADIUS.ph.3.3.3.1\nChassis: ASR9010\nSerial: FOC2340NC8Q (A9K-RSP880-LT-SE)\n\nZEN (DWDM)\nNode: Zen Towers\nChassis: ONS15454\nSerial: SAL1521E15A (Chassis)"
  },
  {
    "Sites": "3 WORLD SQUARE",
    "Latitude": 14.534944,
    "Logitude": 121.050481,
    "Name": "Radius",
    "Road": "Upper McKinley Road",
    "City": "Taguig",
    "District": "Southern Manila District",
    "Address": "Upper McKinley Road, Taguig, Southern Manila District",
    "Devices": "ASR920 (1)",
    "Other Details": "3 WORLD SQUARE (CEN)\nNode: 3_WORLD_SQUARE-NR-ASR92024SZ-10G-PE\nChassis: ASR920\nSerial: FOC2617R7BT (Chassis)"
  },
  {
    "Sites": "3NRL SKYE",
    "Latitude": 14.176886,
    "Logitude": 121.252953,
    "Name": "Radius",
    "Road": "National Highway",
    "City": "Los Baños",
    "District": "Laguna",
    "Address": "National Highway, Los Baños, Laguna",
    "Devices": "ASR920 (1)",
    "Other Details": "3NRL SKYE (CEN)\nNode: 3NRL_SKYE-NR-ASR92024SZ-10G-PE\nChassis: ASR920\nSerial: FOC2502NBSJ (Chassis)"
  },
  {
    "Sites": "Abubot",
    "Latitude": 14.33865,
    "Logitude": 120.936944,
    "Name": "Radius",
    "Road": "Aguinaldo Highway",
    "City": "Dasmariñas",
    "District": "Cavite",
    "Address": "Aguinaldo Highway, Dasmariñas, Cavite",
    "Devices": "ASR920 (1)",
    "Other Details": "Abubot (CEN)\nNode: ABUBOT-NS-ASR92024SZ-10G-PE\nChassis: ASR920\nSerial: CAT2209V13C (Chassis)"
  },
  {
    "Sites": "Altex",
    "Latitude": 14.692674,
    "Logitude": 120.964684,
    "Name": "Radius",
    "Road": "MacArthur Highway",
    "City": "Valenzuela",
    "District": "Northern Manila District",
    "Address": "MacArthur Highway, Valenzuela, Northern Manila District",
    "Devices": "ASR920 (1)",
    "Other Details": "Altex (CEN)\nNode: ALTEX-NR-ASR92024SZ-10G-PE\nChassis: ASR920\nSerial: FOC2502NC5L (Chassis)"
  },
  {
    "Sites": "ARAGON",
    "Latitude": 14.43082,
    "Logitude": 121.015092,
    "Name": "Radius",
    "Road": "Alabang-Zapote Road",
    "City": "Las Piñas",
    "District": "Southern Manila District",
    "Address": "Alabang-Zapote Road, Las Piñas, Southern Manila District",
    "Devices": "ASR920 (1)\nASR9010 (1)\nNCS2006-SA (1)",
    "Other Details": "ARAGON (CEN)\nNode: ARAGON-NR-ASR92024SZ-10G-PE-I\nChassis: ASR920\nSerial: FOC2617R7BH (Chassis)\n\nARAGON (CEN CORE)\nNode: ALB-NPE-1.RADIUS.ph.3.3.3.5\nChassis: ASR9010\nSerial: FOC2340NC8W (A9K-RSP880-LT-SE )\n\nARAGON (DWDM)\nNode: ARAGON\nChassis: NCS2006-SA\nSerial: SAL221300YS (Chassis)"
  },
  {
    "Sites": "ASEANA",
    "Latitude": 14.529206,
    "Logitude": 120.991901,
    "Name": "Radius",
    "Road": "Bradco Avenue",
    "City": "Parañaque",
    "District": "Southern Manila District",
    "Address": "Bradco Avenue, Parañaque, Southern Manila District",
    "Devices": "ASR920 (1)",
    "Other Details": "ASEANA (CEN)\nNode: ASEANA_1-NR-ASR92024SZ-10G-PE\nChassis: ASR920\nSerial: FOC2617R7CA (Chassis)"
  },
  {
    "Sites": "ASTI",
    "Latitude": 14.647314,
    "Logitude": 121.071959,
    "Name": "Radius",
    "Road": "Carlos P. Garcia Avenue",
    "City": "Quezon City",
    "District": "Eastern Manila District",
    "Address": "Carlos P. Garcia Avenue, Quezon City, Eastern Manila District",
    "Devices": "ASR920 (1)",
    "Other Details": "ASTI (CEN)\nNode: ASTI-DC-ASR92024SZ-10G-PE-I\nChassis: ASR920\nSerial: FOC2617R7C0 (Chassis)"
  },
  {
    "Sites": "Avena",
    "Latitude": 14.611496,
    "Logitude": 120.994564,
    "Name": "Radius",
    "Road": "España Boulevard",
    "City": "Manila",
    "District": "Capital District",
    "Address": "España Boulevard, Manila, Capital District",
    "Devices": "ASR920 (1)",
    "Other Details": "Avena (CEN)\nNode: AVENA-NR-ASR92024SZ-10G-PE\nChassis: ASR920\nSerial: CAT2128V1YE (Chassis)"
  },
  {
    "Sites": "Bacoor",
    "Latitude": 14.443819,
    "Logitude": 120.953127,
    "Name": "Radius",
    "Road": "Meadowood Avenue",
    "City": "Bacoor",
    "District": "Cavite",
    "Address": "Meadowood Avenue, Bacoor, Cavite",
    "Devices": "ASR920 (1)",
    "Other Details": "Bacoor (CEN)\nNode: BACOOR-NS-ASR92024SZ-10G-PE\nChassis: ASR920\nSerial: CAT2209V0TE (Chassis)"
  },
  {
    "Sites": "BML",
    "Latitude": 14.664323,
    "Logitude": 121.071596,
    "Name": "Radius",
    "Road": "Peace Valley Street",
    "City": "Quezon City",
    "District": "Eastern Manila District",
    "Address": "Peace Valley Street, Quezon City, Eastern Manila District",
    "Devices": "ASR920 (1)",
    "Other Details": "BML (CEN)\nNode: BML-NR-ASR92024SZ-10G-PE\nChassis: ASR920\nSerial: CAT2341V2UE (Chassis)"
  },
  {
    "Sites": "BSC",
    "Latitude": 14.592584,
    "Logitude": 121.070076,
    "Name": "Radius",
    "Road": "E. Abello Road",
    "City": "Pasig",
    "District": "Eastern Manila District",
    "Address": "E. Abello Road, Pasig, Eastern Manila District",
    "Devices": "ASR920 (2)\nASR9901 (2)",
    "Other Details": "BSC (CEN)\nNode: BSC-DC-ASR92024SZ-10G-PE\nChassis: ASR920\nSerial: CAT1909V0EC (Chassis)\n\nBSC (CEN)\nNode: BSC-DC-ASR92024SZ-10G-PE-II\nChassis: ASR920\nSerial: FOC2617R7CC (Chassis)\n\nBSC (IGR)\nNode: BSC-DC-ASR9901-IGR\nChassis: ASR9901\nSerial: FOC1814NJAC (ASR9001-RP)\n\nBSC (IGR)\nNode: BSC-DC-ASR9901-IGR-NEW\nChassis: ASR9901\nSerial: FOC2642N226 (ASR-9901-RP )"
  },
  {
    "Sites": "BTC",
    "Latitude": 14.554944,
    "Logitude": 121.044554,
    "Name": "Radius",
    "Road": "31st Street",
    "City": "Taguig",
    "District": "Southern Manila District",
    "Address": "31st Street, Taguig, Southern Manila District",
    "Devices": "ASR920 (1)",
    "Other Details": "BTC (CEN)\nNode: BTC-NR-ASR92024SZ-10G-PE\nChassis: ASR920\nSerial: FOC2617R7BD (Chassis)"
  },
  {
    "Sites": "Builtmor",
    "Latitude": 14.632853,
    "Logitude": 121.072947,
    "Name": "Radius",
    "Road": "Esteban Abada Street",
    "City": "Quezon City",
    "District": "Eastern Manila District",
    "Address": "Esteban Abada Street, Quezon City, Eastern Manila District",
    "Devices": "ASR920 (1)",
    "Other Details": "Builtmor (CEN)\nNode: BUILTMOR_TOWER-NR-ASR92024SZ-10G-PE\nChassis: ASR920\nSerial: FOC2502NC4W (Chassis)"
  },
  {
    "Sites": "CASA BELLA",
    "Latitude": 14.632981,
    "Logitude": 121.020108,
    "Name": "Radius",
    "Road": "Quezon Avenue",
    "City": "Quezon City",
    "District": "Eastern Manila District",
    "Address": "Quezon Avenue, Quezon City, Eastern Manila District",
    "Devices": "ASR920 (1)",
    "Other Details": "CASA BELLA (CEN)\nNode: CASA_BELLA-NR-ASR92024SZ-10G-PE\nChassis: ASR920\nSerial: CAT2341V2T9 (Chassis)"
  },
  {
    "Sites": "CAV1",
    "Latitude": 14.265468,
    "Logitude": 120.918022,
    "Name": "Radius",
    "Road": "De Los Reyes Street",
    "City": "General Trias",
    "District": "Cavite",
    "Address": "De Los Reyes Street, General Trias, Cavite",
    "Devices": "ASR920 (1)\nNCS2006-SA (1)",
    "Other Details": "CAV1 (CEN)\nNode: CAV1-DC-ASR92024SZ-10G-PE\nChassis: ASR920\nSerial: CAT2128V1YH (Chassis)\n\nCAV1 (DWDM)\nNode: CAV1\nChassis: NCS2006-SA\nSerial: SAL221300YV (Chassis)"
  },
  {
    "Sites": "CEPZ",
    "Latitude": 14.407608,
    "Logitude": 120.859414,
    "Name": "Radius",
    "Road": "General Trias Drive",
    "City": "Rosario",
    "District": "Cavite",
    "Address": "General Trias Drive, Rosario, Cavite",
    "Devices": "ASR920 (1)",
    "Other Details": "CEPZ (CEN)\nNode: CEPZ-NB-ASR92024SZ-10G-PE\nChassis: ASR920\nSerial: CAT2128V23Q (Chassis)"
  },
  {
    "Sites": "CITIARCADE",
    "Latitude": 14.434119,
    "Logitude": 121.044605,
    "Name": "Radius",
    "Road": "Don Jesus Boulevard",
    "City": "Muntinlupa",
    "District": "Southern Manila District",
    "Address": "Don Jesus Boulevard, Muntinlupa, Southern Manila District",
    "Devices": "ASR920 (1)",
    "Other Details": "CITIARCADE (CEN)\nNode: CITIARCADE-NR-ASR92024SZ-10G-PE-I\nChassis: ASR920\nSerial: CAT1913V01W (Chassis)"
  },
  {
    "Sites": "COLUMBIA",
    "Latitude": 14.682276,
    "Logitude": 121.085548,
    "Name": "Radius",
    "Road": "Emilio Jacinto Street",
    "City": "Quezon City",
    "District": "Eastern Manila District",
    "Address": "Emilio Jacinto Street, Quezon City, Eastern Manila District",
    "Devices": "ASR920 (1)",
    "Other Details": "COLUMBIA (CEN)\nNode: COLUMBIA-NR-ASR92024SZ-10G-PE\nChassis: ASR920\nSerial: FOC2502NBSD (Chassis)"
  },
  {
    "Sites": "COMMON GOAL",
    "Latitude": 14.425907,
    "Logitude": 121.026015,
    "Name": "Radius",
    "Road": "Securities Street",
    "City": "Muntinlupa",
    "District": "Southern Manila District",
    "Address": "Securities Street, Muntinlupa, Southern Manila District",
    "Devices": "ASR920 (1)",
    "Other Details": "COMMON GOAL (CEN)\nNode: COMMONGOAL-NR-ASR92024SZ-10G-PE\nChassis: ASR920\nSerial: CAT2128V1YK (Chassis)"
  },
  {
    "Sites": "CYBER SIGMA",
    "Latitude": 14.535174,
    "Logitude": 121.043111,
    "Name": "Radius",
    "Road": "Lawton Avenue",
    "City": "Taguig",
    "District": "Southern Manila District",
    "Address": "Lawton Avenue, Taguig, Southern Manila District",
    "Devices": "ASR920 (1)",
    "Other Details": "CYBER SIGMA (CEN)\nNode: CYBER_SIGMA-NR-ASR92024SZ-10G-PE\nChassis: ASR920\nSerial: CAT2341V2BQ (Chassis)"
  },
  {
    "Sites": "CYBERPOD",
    "Latitude": 14.641268,
    "Logitude": 121.042032,
    "Name": "Radius",
    "Road": "NIA Road",
    "City": "Quezon City",
    "District": "Eastern Manila District",
    "Address": "NIA Road, Quezon City, Eastern Manila District",
    "Devices": "ASR920 (1)",
    "Other Details": "CYBERPOD (CEN)\nNode: CYBERPOD_CENTRIS-NR-ASR92024SZ-10G-PE\nChassis: ASR920\nSerial: FOC2447NQKB (Chassis)"
  },
  {
    "Sites": "DALISAY",
    "Latitude": 14.791198,
    "Logitude": 121.074111,
    "Name": "Radius",
    "Road": "Quirino Highway",
    "City": "San Jose del Monte",
    "District": "Bulacan",
    "Address": "Quirino Highway, San Jose del Monte, Bulacan",
    "Devices": "ASR920 (1)",
    "Other Details": "DALISAY (CEN)\nNode: DALISAY-NR-ASR92024SZ-10G-PE\nChassis: ASR920\nSerial: CAT1920V06X (Chassis)"
  },
  {
    "Sites": "DATAONE",
    "Latitude": 14.607599,
    "Logitude": 121.079844,
    "Name": "Radius",
    "Road": "Eastwood Avenue",
    "City": "Quezon City",
    "District": "Eastern Manila District",
    "Address": "Eastwood Avenue, Quezon City, Eastern Manila District",
    "Devices": "ASR920 (1)",
    "Other Details": "DATAONE (CEN)\nNode: DATAONE-NR-ASR92024SZ-10G-PE-I\nChassis: ASR920\nSerial: FOC2502NC79 (Chassis)"
  },
  {
    "Sites": "DCI",
    "Latitude": 14.557514,
    "Logitude": 121.020489,
    "Name": "Radius",
    "Road": "Ayala Avenue",
    "City": "Makati",
    "District": "Southern Manila District",
    "Address": "Ayala Avenue, Makati, Southern Manila District",
    "Devices": "ASR920 (1)\nNCS2006-SA (1)",
    "Other Details": "DCI (CEN)\nNode: DCI-DC-ASR92024SZ-10G-P2P\nChassis: ASR920\nSerial: CAT1920V06W (Chassis)\n\nDCI (DWDM)\nNode: DCI\nChassis: NCS2006-SA\nSerial: SAL2032UCCV (Chassis)"
  },
  {
    "Sites": "DE CASTRO",
    "Latitude": 14.446762,
    "Logitude": 120.953441,
    "Name": "Radius",
    "Road": "Aguinaldo Highway",
    "City": "Bacoor",
    "District": "Cavite",
    "Address": "Aguinaldo Highway, Bacoor, Cavite",
    "Devices": "ASR920 (2)\nNCS55A2 (1)",
    "Other Details": "DECASTRO (CEN)\nNode: DE_CASTRO-NR-ASR92024SZ-10G-PE-II\nChassis: ASR920\nSerial: FOC2502NBSE (Chassis)\n\nDECASTRO (CEN)\nNode: DE_CASTRO-NR-ASR92024SZ-10G-PE-III\nChassis: ASR920\nSerial: FOC2617R7C6 (Chassis)\n\nDE CASTRO (CEN)\nNode: DE_CASTRO-NR-NCS55A2-40G-PE-I\nChassis: NCS55A2\nSerial: FOC2336R2D0 (Chassis)"
  },
  {
    "Sites": "DFMTG",
    "Latitude": 14.296329,
    "Logitude": 121.105561,
    "Name": "Radius",
    "Road": "National Highway 1",
    "City": "Santa Rosa",
    "District": "Laguna",
    "Address": "National Highway 1, Santa Rosa, Laguna",
    "Devices": "ASR920 (1)\nNCS55A2 (1)",
    "Other Details": "DFMTG (CEN)\nNode: DFMTG-NR-ASR92024SZ-10G-PE-II\nChassis: ASR920\nSerial: CAT2341V2EH (Chassis)\n\nDFMTG (CEN)\nNode: DFMTG-NR-NCS55A2-40G-PE-I\nChassis: NCS55A2\nSerial: FOC2319R0L9 (Chassis)"
  },
  {
    "Sites": "DIGITAL EDGE",
    "Latitude": 14.272147,
    "Logitude": 121.065299,
    "Name": "Radius",
    "Road": "East Science Avenue",
    "City": "Biñan",
    "District": "Laguna",
    "Address": "East Science Avenue, Biñan, Laguna",
    "Devices": "ASR920 (1)",
    "Other Details": "DIGITAL EDGE (CEN)\nNode: DIGITAL_EDGE-DC-ASR92024SZ-10G-PE-I\nChassis: ASR920\nSerial: CAT2341V2S8 (Chassis)"
  },
  {
    "Sites": "DIGITAL HALO",
    "Latitude": 14.589954,
    "Logitude": 121.137963,
    "Name": "Radius",
    "Road": "Sierra Madre Circle",
    "City": "Cainta",
    "District": "Rizal",
    "Address": "Sierra Madre Circle, Cainta, Rizal",
    "Devices": "ASR920 (1)",
    "Other Details": "DIGITAL HALO (CEN)\nNode: DIGITAL_HALO-DC-ASR92024SZ-10G-PE-I\nChassis: ASR920\nSerial: FOC2617R7C8 (Chassis)"
  },
  {
    "Sites": "E&R",
    "Latitude": 14.853145,
    "Logitude": 120.815893,
    "Name": "Radius",
    "Road": "MacArthur Highway",
    "City": "Malolos",
    "District": "Bulacan",
    "Address": "MacArthur Highway, Malolos, Bulacan",
    "Devices": "ASR920 (1)",
    "Other Details": "E&R (CEN)\nNode: E&R-NR-ASR92024SZ-10G-PE\nChassis: ASR920\nSerial: FOC2502NC4R (Chassis)"
  },
  {
    "Sites": "ETPI",
    "Latitude": 14.561247,
    "Logitude": 121.018546,
    "Name": "Radius",
    "Road": "H. V. Dela Costa Street",
    "City": "Makati",
    "District": "Southern Manila District",
    "Address": "H. V. Dela Costa Street, Makati, Southern Manila District",
    "Devices": "ASR920 (1)",
    "Other Details": "ETPI (CEN)\nNode: ETPI-DC-ASR92024SZ-10G-PE\nChassis: ASR920\nSerial: CAT2341V2VG (Chassis)"
  },
  {
    "Sites": "FABRICARE",
    "Latitude": 14.428577,
    "Logitude": 121.019175,
    "Name": "Radius",
    "Road": "Alabang-Zapote Road",
    "City": "Not found",
    "District": "Southern Manila District",
    "Address": "Alabang-Zapote Road, Not found, Southern Manila District",
    "Devices": "ASR920 (2)",
    "Other Details": "FABRICARE (CEN)\nNode: FABRICARE-NR-ASR92024SZ-10G-PE\nChassis: ASR920\nSerial: CAT1909V0HP (Chassis)\n\nFABRICARE (CEN)\nNode: FABRICARE-NR-ASR92024SZ-10G-PE-II\nChassis: ASR920\nSerial: FOC2449N23A (Chassis)"
  },
  {
    "Sites": "FAICOUR",
    "Latitude": 14.428577,
    "Logitude": 121.019175,
    "Name": "Radius",
    "Road": "Alabang-Zapote Road",
    "City": "Not found",
    "District": "Southern Manila District",
    "Address": "Alabang-Zapote Road, Not found, Southern Manila District",
    "Devices": "ASR920 (1)",
    "Other Details": "FAICOUR (CEN)\nNode: FAICOUR-NR-ASR92024SZ-10G-PE\nChassis: ASR920\nSerial: CAT2209V12P (Chassis)"
  },
  {
    "Sites": "FCIE",
    "Latitude": 14.290845,
    "Logitude": 120.933029,
    "Name": "Radius",
    "Road": "FCIE Admin Complex",
    "City": "Dasmariñas",
    "District": "Cavite",
    "Address": "FCIE Admin Complex, Dasmariñas, Cavite",
    "Devices": "ASR920 (1)",
    "Other Details": "FCIE (CEN)\nNode: FCIE-NR-ASR92024SZ-10G-PE\nChassis: ASR920\nSerial: CAT2341V2S5 (Chassis)"
  },
  {
    "Sites": "FELICISIMO",
    "Latitude": 14.42165,
    "Logitude": 121.045846,
    "Name": "Radius",
    "Road": "East Service Road",
    "City": "Muntinlupa",
    "District": "Southern Manila District",
    "Address": "East Service Road, Muntinlupa, Southern Manila District",
    "Devices": "ASR920 (1)",
    "Other Details": "FELICISIMO (CEN)\nNode: FELICISIMO-NR-ASR92024SZ-10G-PE\nChassis: ASR920\nSerial: CAT1920V050 (Chassis)"
  },
  {
    "Sites": "FORTRESS_HILL",
    "Latitude": 14.590237,
    "Logitude": 121.034617,
    "Name": "Radius",
    "Road": "Shaw Boulevard",
    "City": "Mandaluyong",
    "District": "Eastern Manila District",
    "Address": "Shaw Boulevard, Mandaluyong, Eastern Manila District",
    "Devices": "ASR920 (1)",
    "Other Details": "FORTRESS_HILL (CEN)\nNode: FORTRESS_HILL-NR-ASR92024SZ-10G-PE\nChassis: ASR920\nSerial: FOC2502NBSC (Chassis)"
  },
  {
    "Sites": "FORTUNA",
    "Latitude": 14.464827,
    "Logitude": 121.019036,
    "Name": "Radius",
    "Road": "Doctor A. Santos Avenue",
    "City": "Parañaque",
    "District": "Southern Manila District",
    "Address": "Doctor A. Santos Avenue, Parañaque, Southern Manila District",
    "Devices": "ASR920 (1)",
    "Other Details": "FORTUNA (CEN)\nNode: FORTUNA-NR-ASR92024SZ-10G-PE-I\nChassis: ASR920\nSerial: FOC2453N0M9 (Chassis)"
  },
  {
    "Sites": "GBH",
    "Latitude": 14.583026,
    "Logitude": 121.051892,
    "Name": "Radius",
    "Road": "Yale Street",
    "City": "Mandaluyong",
    "District": "Eastern Manila District",
    "Address": "Yale Street, Mandaluyong, Eastern Manila District",
    "Devices": "ASR920 (1)",
    "Other Details": "GBH (CEN)\nNode: GBH-NR-ASR92024SZ-10G-PE\nChassis: ASR920\nSerial: FOC2502NC2V (Chassis)"
  },
  {
    "Sites": "GDC",
    "Latitude": 0,
    "Logitude": 0,
    "Name": "Radius",
    "Road": 0,
    "City": 0,
    "District": 0,
    "Address": "0, 0, 0",
    "Devices": "ASR920 (1)",
    "Other Details": "GDC (CEN)\nNode: GDC-NR-ASR92024SZ-10G-PE-I\nChassis: ASR920\nSerial: FOC2502NC76 (Chassis)"
  },
  {
    "Sites": "GIGA_TOWER",
    "Latitude": 14.59204,
    "Logitude": 121.080733,
    "Name": "Radius",
    "Road": "Not found",
    "City": "Quezon City",
    "District": "Eastern Manila District",
    "Address": "Not found, Quezon City, Eastern Manila District",
    "Devices": "ASR920 (1)",
    "Other Details": "GIGA_TOWER (CEN)\nNode: GIGA_TOWER-NR-ASR92024SZ-10G-PE\nChassis: ASR920\nSerial: CAT1920V07E (Chassis)"
  },
  {
    "Sites": "GL_GONZAGA",
    "Latitude": 14.565476,
    "Logitude": 120.997919,
    "Name": "Radius",
    "Road": "A. Estrada Street",
    "City": "Manila",
    "District": "Capital District",
    "Address": "A. Estrada Street, Manila, Capital District",
    "Devices": "ASR920 (2)",
    "Other Details": "GL_GONZAGA (CEN)\nNode: GL_GONZAGA-NR-ASR92024SZ-10G-AG\nChassis: ASR920\nSerial: FOC2617R79Z (Chassis)\n\nGL_GONZAGA (CEN)\nNode: GL_GONZAGA-NR-ASR92024SZ-10G-PE\nChassis: ASR920\nSerial: FOC2502NC3K (Chassis)"
  },
  {
    "Sites": "GLOBE_MK1",
    "Latitude": 14.559655,
    "Logitude": 121.018747,
    "Name": "Radius",
    "Road": "Valero Access Road 4",
    "City": "Makati",
    "District": "Southern Manila District",
    "Address": "Valero Access Road 4, Makati, Southern Manila District",
    "Devices": "ASR920 (1)",
    "Other Details": "GLOBE_MK1 (CEN)\nNode: GLOBE_MK1-DC-ASR92024SZ-10G-PE-I\nChassis: ASR920\nSerial: CAT1920V06K (Chassis)"
  },
  {
    "Sites": "GLOBE MK2",
    "Latitude": 14.538941,
    "Logitude": 121.019928,
    "Name": "Radius",
    "Road": "Chino Roces Avenue Extension",
    "City": "Makati",
    "District": "Southern Manila District",
    "Address": "Chino Roces Avenue Extension, Makati, Southern Manila District",
    "Devices": "ASR920 (1)\nNCS540 (1)",
    "Other Details": "GLOBE_MK2 (CEN)\nNode: GLOBE_MK2-DC-ASR92024SZ-10G-PE-I\nChassis: ASR920\nSerial: CAT1905V0V5 (Chassis)\n\nGLOBE MK2 (CEN)\nNode: GLOBE_MK2-DC-NCS540-40G-PE-II\nChassis: NCS540\nSerial: FOC2311N3Z0 (Chassis)"
  },
  {
    "Sites": "GOLDEN_SKY",
    "Latitude": 14.52273,
    "Logitude": 120.9814,
    "Name": "Radius",
    "Road": "Asean Avenue",
    "City": "Parañaque",
    "District": "Southern Manila District",
    "Address": "Asean Avenue, Parañaque, Southern Manila District",
    "Devices": "ASR920 (1)",
    "Other Details": "GOLDEN_SKY (CEN)\nNode: GOLDEN_SKY-NR-ASR92024SZ-10G-PE\nChassis: ASR920\nSerial: FOC2502NC0Z (Chassis)"
  },
  {
    "Sites": "GRACELIFE",
    "Latitude": 14.651215,
    "Logitude": 120.9831,
    "Name": "Radius",
    "Road": "J. Teodoro Street",
    "City": "Caloocan",
    "District": "Northern Manila District",
    "Address": "J. Teodoro Street, Caloocan, Northern Manila District",
    "Devices": "ASR920 (1)",
    "Other Details": "GRACELIFE (CEN)\nNode: GRACELIFE-NR-ASR92024SZ-10G-PE-I\nChassis: ASR920\nSerial: CAT2341V2DA (Chassis)"
  },
  {
    "Sites": "HELIUS",
    "Latitude": 14.427075,
    "Logitude": 121.024191,
    "Name": "Radius",
    "Road": "Alabang-Zapote Road",
    "City": "Muntinlupa",
    "District": "Southern Manila District",
    "Address": "Alabang-Zapote Road, Muntinlupa, Southern Manila District",
    "Devices": "ASR920 (1)",
    "Other Details": "HELIUS (CEN)\nNode: HELIUS-CP-ASR92024SZ-10G-PE\nChassis: ASR920\nSerial: CAT1909V0HZ (Chassis)"
  },
  {
    "Sites": "ILD",
    "Latitude": 14.65722,
    "Logitude": 120.98116,
    "Name": "Radius",
    "Road": "P. Bonifacio Road",
    "City": "Caloocan",
    "District": "Northern Manila District",
    "Address": "P. Bonifacio Road, Caloocan, Northern Manila District",
    "Devices": "ASR920 (1)",
    "Other Details": "ILD (CEN)\nNode: ILD-NR-ASR92024SZ-10G-PE-I\nChassis: ASR920\nSerial: CAT2209V0WJ (Chassis)"
  },
  {
    "Sites": "IPCBTC",
    "Latitude": 14.554715,
    "Logitude": 121.04446,
    "Name": "Radius",
    "Road": "31st Street",
    "City": "Taguig",
    "District": "Southern Manila District",
    "Address": "31st Street, Taguig, Southern Manila District",
    "Devices": "ASR920 (1)",
    "Other Details": "IPCBTC (CEN)\nNode: IPCBTC-DC-ASR92024SZ-10G-PE\nChassis: ASR920\nSerial: CAT2341V2KU (Chassis)"
  },
  {
    "Sites": "IPC SUCAT",
    "Latitude": 14.463008,
    "Logitude": 121.027295,
    "Name": "Radius",
    "Road": "Doctor A. Santos Avenue",
    "City": "Parañaque",
    "District": "Southern Manila District",
    "Address": "Doctor A. Santos Avenue, Parañaque, Southern Manila District",
    "Devices": "ASR920 (2)\nNCS540 (1)\nNCS2006-SA (1)",
    "Other Details": "IPC (CEN)\nNode: IPC-DC-ASR92024SZ-10G-P2P\nChassis: ASR920\nSerial: CAT1909V0HZ (Chassis)\n\nIPCSUCAT (CEN)\nNode: IPCSUCAT-DC-ASR92024SZ-10G-PE\nChassis: ASR920\nSerial: CAT2208V17T (Chassis)\n\nIPC SUCAT (CEN)\nNode: IPCSUCAT-DC-NCS540-40G-PE-II\nChassis: NCS540\nSerial: FOC2311N3Y8 (Chassis)\n\nIPC-Sucat (DWDM)\nNode: IPC-Sucat\nChassis: NCS2006-SA\nSerial: SAL221300YR (Chassis)"
  },
  {
    "Sites": "IPC RCBC",
    "Latitude": 14.560869,
    "Logitude": 121.01641,
    "Name": "Radius",
    "Road": "Ayala Avenue",
    "City": "Makati",
    "District": "Southern Manila District",
    "Address": "Ayala Avenue, Makati, Southern Manila District",
    "Devices": "ASR920 (1)\nNCS540 (1)",
    "Other Details": "IPCRCBC (CEN)\nNode: IPCRCBC-DC-ASR92024SZ-10G-PE-I\nChassis: ASR920\nSerial: FOC2520R0NU (Chassis)\n\nIPC RCBC (CEN)\nNode: IPCRCBC-DC-NCS540-40G-PE-I\nChassis: NCS540\nSerial: FOC2428NR7B (Chassis)"
  },
  {
    "Sites": "JEROSS",
    "Latitude": 14.324997,
    "Logitude": 120.773321,
    "Name": "Radius",
    "Road": "Antero Soriano Highway",
    "City": "Naic",
    "District": "Cavite",
    "Address": "Antero Soriano Highway, Naic, Cavite",
    "Devices": "ASR920 (1)",
    "Other Details": "JEROSS (CEN)\nNode: JEROSS-NR-ASR92024SZ-10G-PE-I\nChassis: ASR920\nSerial: FOC2502NC7X (Chassis)"
  },
  {
    "Sites": "JGSUMMIT",
    "Latitude": 14.557559,
    "Logitude": 121.020656,
    "Name": "Radius",
    "Road": "Ayala Avenue",
    "City": "Makati",
    "District": "Southern Manila District",
    "Address": "Ayala Avenue, Makati, Southern Manila District",
    "Devices": "ASR920 (1)",
    "Other Details": "JGSUMMIT (CEN)\nNode: JGSUMMIT-NR-ASR92024SZ-10G-PE\nChassis: ASR920\nSerial: CAT1909V0J1 (Chassis)"
  },
  {
    "Sites": "JRMD",
    "Latitude": 14.575311,
    "Logitude": 121.140501,
    "Name": "Radius",
    "Road": "L. Wood Street",
    "City": "Taytay",
    "District": "Rizal",
    "Address": "L. Wood Street, Taytay, Rizal",
    "Devices": "ASR920 (1)",
    "Other Details": "JRMD (CEN)\nNode: JRMD-NR-ASR92024SZ-10G-PE\nChassis: ASR920\nSerial: FOC2453N0M7 (Chassis)"
  },
  {
    "Sites": "KAMAGONG",
    "Latitude": 14.563737,
    "Logitude": 121.015596,
    "Name": "Radius",
    "Road": "Ayala Avenue Extension",
    "City": "Makati",
    "District": "Southern Manila District",
    "Address": "Ayala Avenue Extension, Makati, Southern Manila District",
    "Devices": "ASR920 (1)\nASR9010 (1)",
    "Other Details": "KAMAGONG (CEN)\nNode: KAMAGONG-NS-ASR92024SZ-PE\nChassis: ASR920\nSerial: CAT1920V05D (Chassis)\n\nKAMAGONG (CEN CORE)\nNode: KMG-NPE-1.RADIUS.ph-3.3.3.6\nChassis: ASR9010\nSerial: FOC1808NEUW (A9K-RSP440-SE)"
  },
  {
    "Sites": "KINGSWOOD_ARCADE",
    "Latitude": 14.566927,
    "Logitude": 121.012625,
    "Name": "Radius",
    "Road": "Pablo Ocampo Street",
    "City": "Makati",
    "District": "Southern Manila District",
    "Address": "Pablo Ocampo Street, Makati, Southern Manila District",
    "Devices": "ASR920 (1)",
    "Other Details": "KINGSWOOD_ARCADE (CEN)\nNode: KINGSWOOD_ARCADE-NR-ASR92024SZ-10G-PE\nChassis: ASR920\nSerial: CAT1913V01Z (Chassis)"
  },
  {
    "Sites": "LAUNCHPAD",
    "Latitude": 14.574015,
    "Logitude": 121.054187,
    "Name": "Radius",
    "Road": "Reliance Street",
    "City": "Mandaluyong",
    "District": "Eastern Manila District",
    "Address": "Reliance Street, Mandaluyong, Eastern Manila District",
    "Devices": "ASR920 (2)",
    "Other Details": "LAUNCHPAD (CEN)\nNode: LAUNCHPAD-NR-ASR92024SZ-10G-PE\nChassis: ASR920\nSerial: CAT2341V2RY (Chassis)\n\nLAUNCHPAD (CEN)\nNode: LAUNCHPAD-NR-ASR92024SZ-10G-PE-II\nChassis: ASR920\nSerial: CAT1913V00V (Chassis)"
  },
  {
    "Sites": "LIIP",
    "Latitude": 14.287384,
    "Logitude": 121.084446,
    "Name": "Radius",
    "Road": "Not found",
    "City": "Biñan",
    "District": "Laguna",
    "Address": "Not found, Biñan, Laguna",
    "Devices": "ASR920 (1)",
    "Other Details": "LIIP (CEN)\nNode: LIIP-NR-ASR92024SZ-10G-PE-I\nChassis: ASR920\nSerial: FOC2617R7BF (Chassis)"
  },
  {
    "Sites": "LISP1",
    "Latitude": 14.287384,
    "Logitude": 121.084446,
    "Name": "Radius",
    "Road": "Not found",
    "City": "Biñan",
    "District": "Laguna",
    "Address": "Not found, Biñan, Laguna",
    "Devices": "ASR920 (1)",
    "Other Details": "LISP1 (CEN)\nNode: LISP1-NR-ASR92024SZ-10G-PE\nChassis: ASR920\nSerial: FOC2502NC10 (Chassis)"
  },
  {
    "Sites": "LITE",
    "Latitude": 14.612962,
    "Logitude": 121.092273,
    "Name": "Radius",
    "Road": "Amang Rodriguez Avenue",
    "City": "Pasig",
    "District": "Eastern Manila District",
    "Address": "Amang Rodriguez Avenue, Pasig, Eastern Manila District",
    "Devices": "ASR920 (2)",
    "Other Details": "LITE (CEN)\nNode: LITE-NR-ASR92024SZ-10G-PE\nChassis: ASR920\nSerial: CAT2209V0ZB (Chassis)\n\nLITE (CEN)\nNode: LITE-NR-ASR92024SZ-10G-PE-II\nChassis: ASR920\nSerial: CAT1909V0J9 (Chassis)"
  },
  {
    "Sites": "LITTLE_ANGEL",
    "Latitude": 14.61277,
    "Logitude": 121.007892,
    "Name": "Radius",
    "Road": "Unang Hakbang Street",
    "City": "Quezon City",
    "District": "Eastern Manila District",
    "Address": "Unang Hakbang Street, Quezon City, Eastern Manila District",
    "Devices": "ASR920 (1)",
    "Other Details": "LITTLE_ANGEL (CEN)\nNode: LITTLE_ANGEL-NR-ASR92024SZ-10G-PE\nChassis: ASR920\nSerial: FOC2502NC5X (Chassis)"
  },
  {
    "Sites": "MAKATI_SOUTH_HILLS",
    "Latitude": 14.496202,
    "Logitude": 121.041276,
    "Name": "Radius",
    "Road": "East Service Road",
    "City": "Parañaque",
    "District": "Southern Manila District",
    "Address": "East Service Road, Parañaque, Southern Manila District",
    "Devices": "ASR920 (1)",
    "Other Details": "MAKATI_SOUTH_HILLS (CEN)\nNode: MAKATI_SOUTH_HILLS-NR-ASR92024SZ-10G-PE\nChassis: ASR920\nSerial: FOC2543R2GQ (Chassis)"
  },
  {
    "Sites": "MARCO_POLO",
    "Latitude": 14.587438,
    "Logitude": 121.063584,
    "Name": "Radius",
    "Road": "Meralco Avenue",
    "City": "Pasig",
    "District": "Eastern Manila District",
    "Address": "Meralco Avenue, Pasig, Eastern Manila District",
    "Devices": "ASR920 (1)",
    "Other Details": "MARCO_POLO (CEN)\nNode: MARCO_POLO-NR-ASR92024SZ-10G-PE-I\nChassis: ASR920\nSerial: CAT2341V2T1 (Chassis)"
  },
  {
    "Sites": "METROPARK",
    "Latitude": 14.538799,
    "Logitude": 120.991007,
    "Name": "Radius",
    "Road": "Metrobank Avenue",
    "City": "Pasay",
    "District": "Southern Manila District",
    "Address": "Metrobank Avenue, Pasay, Southern Manila District",
    "Devices": "ASR920 (1)",
    "Other Details": "METROPARK (CEN)\nNode: METROPARK-CP-ASR92024SZ-10G-PE\nChassis: ASR920\nSerial: CAT2128V25Q (Chassis)"
  },
  {
    "Sites": "MGC_VERANDA",
    "Latitude": 14.670069,
    "Logitude": 120.970514,
    "Name": "Radius",
    "Road": "Celia Street",
    "City": "Malabon",
    "District": "Northern Manila District",
    "Address": "Celia Street, Malabon, Northern Manila District",
    "Devices": "ASR920 (1)",
    "Other Details": "MGC_VERANDA (CEN)\nNode: MGC_VERANDA-NR-ASR92024SZ-10G-PE-I\nChassis: ASR920\nSerial: CAT2341V2S0 (Chassis)"
  },
  {
    "Sites": "MIRAX",
    "Latitude": 14.538518,
    "Logitude": 121.018869,
    "Name": "Radius",
    "Road": "Chino Roces Avenue Extension",
    "City": "Makati",
    "District": "Southern Manila District",
    "Address": "Chino Roces Avenue Extension, Makati, Southern Manila District",
    "Devices": "ASR920 (1)",
    "Other Details": "MIRAX (CEN)\nNode: MIRAX-NR-ASR92024SZ-10G-PE\nChassis: ASR920\nSerial: FOC2617R7DR (Chassis)"
  },
  {
    "Sites": "MONTALBAN",
    "Latitude": 14.729316,
    "Logitude": 121.138722,
    "Name": "Radius",
    "Road": "E. Rodriguez Highway",
    "City": "Rodriguez",
    "District": "Rizal",
    "Address": "E. Rodriguez Highway, Rodriguez, Rizal",
    "Devices": "ASR920 (1)",
    "Other Details": "MONTALBAN (CEN)\nNode: MONTALBAN-NR-ASR92024SZ-10G-PE\nChassis: ASR920\nSerial: FOC2617R7B5 (Chassis)"
  },
  {
    "Sites": "MR",
    "Latitude": 14.761807,
    "Logitude": 120.948664,
    "Name": "Radius",
    "Road": "MacArthur Highway",
    "City": "Marilao",
    "District": "Bulacan",
    "Address": "MacArthur Highway, Marilao, Bulacan",
    "Devices": "ASR920 (1)",
    "Other Details": "MR (CEN)\nNode: MR-NR-ASR92024SZ-10G-PE-I\nChassis: ASR920\nSerial: FOC2502NC4X (Chassis)"
  },
  {
    "Sites": "NORTHGATE",
    "Latitude": 14.426042,
    "Logitude": 121.039113,
    "Name": "Radius",
    "Road": "Northgate Avenue",
    "City": "Muntinlupa",
    "District": "Southern Manila District",
    "Address": "Northgate Avenue, Muntinlupa, Southern Manila District",
    "Devices": "ASR920 (1)",
    "Other Details": "NORTHGATE (CEN)\nNode: NORTHGATE-NR-ASR92024SZ-10G-PE\nChassis: ASR920\nSerial: CAT1917V0BQ (Chassis)"
  },
  {
    "Sites": "NOW TELECOM",
    "Latitude": 14.616714,
    "Logitude": 121.00081,
    "Name": "Radius",
    "Road": "España Boulevard",
    "City": "Manila",
    "District": "Capital District",
    "Address": "España Boulevard, Manila, Capital District",
    "Devices": "ASR920 (1)",
    "Other Details": "NOW TELECOM (CEN)\nNode: NOW_TELECOM-CP-ASR92024SZ-10G-PE-I\nChassis: ASR920\nSerial: CAT2341V2R3 (Chassis)"
  },
  {
    "Sites": "OCC",
    "Latitude": 14.583887,
    "Logitude": 121.063402,
    "Name": "Radius",
    "Road": "Meralco Avenue",
    "City": "Pasig",
    "District": "Eastern Manila District",
    "Address": "Meralco Avenue, Pasig, Eastern Manila District",
    "Devices": "ASR920 (1)",
    "Other Details": "OCC (CEN)\nNode: OCC-NR-ASR92024SZ-10G-AG\nChassis: ASR920\nSerial: CAT2209V13P (Chassis)"
  },
  {
    "Sites": "ONE_CAMPUS",
    "Latitude": 14.533484,
    "Logitude": 121.052719,
    "Name": "Radius",
    "Road": "Campus Avenue",
    "City": "Taguig",
    "District": "Southern Manila District",
    "Address": "Campus Avenue, Taguig, Southern Manila District",
    "Devices": "ASR920 (1)",
    "Other Details": "ONE_CAMPUS (CEN)\nNode: ONE_CAMPUS-NR-ASR92024SZ-10G-PE\nChassis: ASR920\nSerial: FOC2502NC67 (Chassis)"
  },
  {
    "Sites": "ONE_EVOTECH",
    "Latitude": 14.239947,
    "Logitude": 121.058713,
    "Name": "Radius",
    "Road": "Taal Street",
    "City": "Santa Rosa",
    "District": "Laguna",
    "Address": "Taal Street, Santa Rosa, Laguna",
    "Devices": "ASR920 (1)",
    "Other Details": "ONE_EVOTECH (CEN)\nNode: ONE_EVOTECH-NR-ASR92024SZ-10G-PE\nChassis: ASR920\nSerial: CAT1917V09A (Chassis)"
  },
  {
    "Sites": "PASAY",
    "Latitude": 14.538625,
    "Logitude": 121.007287,
    "Name": "Radius",
    "Road": "EDSA",
    "City": "Pasay",
    "District": "Southern Manila District",
    "Address": "EDSA, Pasay, Southern Manila District",
    "Devices": "ASR920 (1)",
    "Other Details": "PASAY (CEN)\nNode: PASAY-NS-ASR92024SZ-10G-PE\nChassis: ASR920\nSerial: FOC2617R7DT (Chassis)"
  },
  {
    "Sites": "PAVILION",
    "Latitude": 14.579451,
    "Logitude": 121.054763,
    "Name": "Radius",
    "Road": "Shaw Boulevard",
    "City": "Mandaluyong",
    "District": "Eastern Manila District",
    "Address": "Shaw Boulevard, Mandaluyong, Eastern Manila District",
    "Devices": "ASR920 (2)",
    "Other Details": "PAVILION (CEN)\nNode: PAVILION-NR-ASR92024SZ-10G-PE-I\nChassis: ASR920\nSerial: CAT1909V0FD (Chassis)\n\nPAVILION (CEN)\nNode: PAVILION-NR-ASR92024SZ-10G-PE-II\nChassis: ASR920\nSerial: FOC2617R79K (Chassis)"
  },
  {
    "Sites": "PCA",
    "Latitude": 14.581622,
    "Logitude": 120.998806,
    "Name": "Radius",
    "Road": "Quirino Avenue Extension",
    "City": "Manila",
    "District": "Capital District",
    "Address": "Quirino Avenue Extension, Manila, Capital District",
    "Devices": "ASR920 (1)",
    "Other Details": "PCA (CEN)\nNode: PCA-NR-ASR92024SZ-10G-PE\nChassis: ASR920\nSerial: FOC2502NBTL (Chassis)"
  },
  {
    "Sites": "PHILAM",
    "Latitude": 14.557381,
    "Logitude": 121.021766,
    "Name": "Radius",
    "Road": "Paseo de Roxas",
    "City": "Makati",
    "District": "Southern Manila District",
    "Address": "Paseo de Roxas, Makati, Southern Manila District",
    "Devices": "ASR920 (2)\nASR9010 (1)\nNCS2006-SA (1)",
    "Other Details": "PHILAM (CEN)\nNode: PHILAM-NR-ASR92024SZ-10G-PE-II\nChassis: ASR920\nSerial: FOC2502NC71 (Chassis)\n\nPHILAM (CEN)\nNode: PHILAM-NR-ASR92024SZ-PE\nChassis: ASR920\nSerial: CAT1920V05B (Chassis)\n\nPHILAM (CEN CORE)\nNode: PHL-NPE-1.RADIUS.ph.3.3.3.9\nChassis: ASR9010\nSerial: FOC2340NC76 (A9K-RSP880-LT-SE )\n\nPHILAM (DWDM)\nNode: PHILAM\nChassis: NCS2006-SA\nSerial: SAL1947THAJ (Chassis)"
  },
  {
    "Sites": "PHILEXCEL",
    "Latitude": 15.17557,
    "Logitude": 120.532938,
    "Name": "Radius",
    "Road": "Not found",
    "City": "Mabalacat",
    "District": "Pampanga",
    "Address": "Not found, Mabalacat, Pampanga",
    "Devices": "ASR920 (1)",
    "Other Details": "PHILEXCEL (CEN)\nNode: PHILEXCEL-NR-ASR920-10G-PE\nChassis: ASR920\nSerial: CAT2341V2RZ (Chassis)"
  },
  {
    "Sites": "PLM",
    "Latitude": 14.963245,
    "Logitude": 120.897487,
    "Name": "Radius",
    "Road": "Doña Remedios Trinidad Highway",
    "City": "Baliwag",
    "District": "Bulacan",
    "Address": "Doña Remedios Trinidad Highway, Baliwag, Bulacan",
    "Devices": "ASR920 (1)",
    "Other Details": "PLM (CEN)\nNode: PLM-NR-ASR92024SZ-10G-PE-I\nChassis: ASR920\nSerial: FOC2502NC5S (Chassis)"
  },
  {
    "Sites": "PNB",
    "Latitude": 14.597945,
    "Logitude": 120.97613,
    "Name": "Radius",
    "Road": "Quintin Paredes Road",
    "City": "Manila",
    "District": "Capital District",
    "Address": "Quintin Paredes Road, Manila, Capital District",
    "Devices": "ASR920 (1)",
    "Other Details": "PNB (CEN)\nNode: PNB-NR-ASR92024SZ-10G-PE\nChassis: ASR920\nSerial: FOC2502NC4M (Chassis)"
  },
  {
    "Sites": "PRIMARK_TAGAYTAY",
    "Latitude": 14.101459,
    "Logitude": 120.946367,
    "Name": "Radius",
    "Road": "Tagaytay-Nasugbu Road",
    "City": "Tagaytay",
    "District": "Cavite",
    "Address": "Tagaytay-Nasugbu Road, Tagaytay, Cavite",
    "Devices": "ASR920 (1)",
    "Other Details": "PRIMARK_TAGAYTAY (CEN)\nNode: PRIMARK_TAGAYTAY-NR-ASR92024SZ-10G-PE\nChassis: ASR920\nSerial: CAT2341V2T6 (Chassis)"
  },
  {
    "Sites": "RAFFLES",
    "Latitude": 14.586507,
    "Logitude": 121.061991,
    "Name": "Radius",
    "Road": "Emerald Avenue",
    "City": "Pasig",
    "District": "Eastern Manila District",
    "Address": "Emerald Avenue, Pasig, Eastern Manila District",
    "Devices": "ASR920 (1)",
    "Other Details": "RAFFLES (CEN)\nNode: RAFFLES-NR-ASR92024SZ-10G-PE\nChassis: ASR920\nSerial: CAT1909V0D7 (Chassis)"
  },
  {
    "Sites": "RCBC",
    "Latitude": 14.560822,
    "Logitude": 121.016434,
    "Name": "Radius",
    "Road": "Ayala Avenue",
    "City": "Makati",
    "District": "Southern Manila District",
    "Address": "Ayala Avenue, Makati, Southern Manila District",
    "Devices": "ASR920 (1)\nNCS2006-SA (1)",
    "Other Details": "RCBC (CEN)\nNode: RCBC-NR-ASR92024SZ-10G-PE\nChassis: ASR920\nSerial: CAT2208V12U (Chassis)\n\nRCBC (DWDM)\nNode: RCBC\nChassis: NCS2006-SA\nSerial: SAL2032UCCM (Chassis)"
  },
  {
    "Sites": "REGALIA",
    "Latitude": 14.616168,
    "Logitude": 121.05331,
    "Name": "Radius",
    "Road": "5th Avenue",
    "City": "Quezon City",
    "District": "Eastern Manila District",
    "Address": "5th Avenue, Quezon City, Eastern Manila District",
    "Devices": "ASR920 (1)\nASR9010 (1)",
    "Other Details": "REGALIA (CEN)\nNode: REGALIA-NR-ASR92024SZ-PE\nChassis: ASR920\nSerial: CAT1909V0KJ (Chassis)\n\nREGALIA (CEN CORE)\nNode: RGL-NPE-1.RADIUS.ph-3.3.3.3\nChassis: ASR9010\nSerial: FOC2340NC3U (A9K-RSP880-LT-SE )"
  },
  {
    "Sites": "RELIANCE_IT",
    "Latitude": 14.577809,
    "Logitude": 121.07404,
    "Name": "Radius",
    "Road": "E. Rodriguez Jr. Avenue",
    "City": "Pasig",
    "District": "Eastern Manila District",
    "Address": "E. Rodriguez Jr. Avenue, Pasig, Eastern Manila District",
    "Devices": "ASR920 (1)",
    "Other Details": "RELIANCE_IT (CEN)\nNode: RELIANCE_IT-DC-ASR92024SZ-10G-PE-I\nChassis: ASR920\nSerial: CAT1920V06B (Chassis)"
  },
  {
    "Sites": "ROB_GENTRI",
    "Latitude": 14.397459,
    "Logitude": 120.865032,
    "Name": "Radius",
    "Road": "Antero Soriano Highway",
    "City": "General Trias",
    "District": "Cavite",
    "Address": "Antero Soriano Highway, General Trias, Cavite",
    "Devices": "ASR920 (1)",
    "Other Details": "ROB_GENTRI (CEN)\nNode: ROB_GENTRI-NR-ASR92024SZ-10G-PE\nChassis: ASR920\nSerial: FOC2617R7BM (Chassis)"
  },
  {
    "Sites": "ROCKWELLMANSION",
    "Latitude": 14.566619,
    "Logitude": 121.039379,
    "Name": "Radius",
    "Road": "Camia Street",
    "City": "Makati",
    "District": "Southern Manila District",
    "Address": "Camia Street, Makati, Southern Manila District",
    "Devices": "ASR920 (2)",
    "Other Details": "ROCKWELLMANSION (CEN)\nNode: ROCKWELLMANSION-NR-ASR92024SZ-10G-PE-I\nChassis: ASR920\nSerial: FOC2617R7BZ (Chassis)\n\nROCKWELLMANSION (CEN)\nNode: ROCKWELLMANSION-NR-ASR92024SZ-10G-PE-II\nChassis: ASR920\nSerial: CAT1909V0FZ (Chassis)"
  },
  {
    "Sites": "SANGLEY",
    "Latitude": 14.461152,
    "Logitude": 120.923547,
    "Name": "Radius",
    "Road": "E. Marquez Street",
    "City": "Bacoor",
    "District": "Cavite",
    "Address": "E. Marquez Street, Bacoor, Cavite",
    "Devices": "ASR920 (1)",
    "Other Details": "SANGLEY (CEN)\nNode: SANGLEY-NR-ASR92024SZ-10G-AG\nChassis: ASR920\nSerial: CAT1909V0H9 (Chassis)"
  },
  {
    "Sites": "SHAW500",
    "Latitude": 14.588122,
    "Logitude": 121.043822,
    "Name": "Radius",
    "Road": "Shaw Boulevard",
    "City": "Mandaluyong",
    "District": "Eastern Manila District",
    "Address": "Shaw Boulevard, Mandaluyong, Eastern Manila District",
    "Devices": "ASR920 (1)",
    "Other Details": "SHAW500 (CEN)\nNode: SHAW500-NR-ASR92024SZ-10G-PE\nChassis: ASR920\nSerial: CAT1909V0GF (Chassis)"
  },
  {
    "Sites": "SKYONE",
    "Latitude": 14.535518,
    "Logitude": 121.150184,
    "Name": "Radius",
    "Road": "M. L. Quezon Avenue",
    "City": "Angono",
    "District": "Rizal",
    "Address": "M. L. Quezon Avenue, Angono, Rizal",
    "Devices": "ASR920 (1)",
    "Other Details": "SKYONE (CEN)\nNode: SKYONE-NR-ASR92024SZ-10G-PE\nChassis: ASR920\nSerial: FOC2502NC69 (Chassis)"
  },
  {
    "Sites": "SOTELO",
    "Latitude": 14.513044,
    "Logitude": 120.995746,
    "Name": "Radius",
    "Road": "Quirino Avenue",
    "City": "Parañaque",
    "District": "Southern Manila District",
    "Address": "Quirino Avenue, Parañaque, Southern Manila District",
    "Devices": "ASR920 (1)",
    "Other Details": "SOTELO (CEN)\nNode: SOTELO-NR-ASR92024SZ-10G-PE\nChassis: ASR920\nSerial: FOC2502NC6A (Chassis)"
  },
  {
    "Sites": "SRI",
    "Latitude": 14.545124,
    "Logitude": 120.994172,
    "Name": "Radius",
    "Road": "F. B. Harrison Street",
    "City": "Pasay",
    "District": "Southern Manila District",
    "Address": "F. B. Harrison Street, Pasay, Southern Manila District",
    "Devices": "ASR920 (3)",
    "Other Details": "SRI (CEN)\nNode: SRI-NR-ASR92024SZ-10G-PE-I\nChassis: ASR920\nSerial: CAT1843V073 (Chassis)\n\nSRI (CEN)\nNode: SRI-NR-ASR92024SZ-10G-PE-II\nChassis: ASR920\nSerial: CAT2209V0ZZ (Chassis)\n\nSRI (CEN)\nNode: SRI-NR-ASR92024SZ-10G-PE-III\nChassis: ASR920\nSerial: FOC2617R7C1 (Chassis)"
  },
  {
    "Sites": "STA CECILIA",
    "Latitude": 14.215238,
    "Logitude": 121.147741,
    "Name": "Radius",
    "Road": "National Highway 1",
    "City": "Calamba",
    "District": "Laguna",
    "Address": "National Highway 1, Calamba, Laguna",
    "Devices": "ASR920 (1)",
    "Other Details": "STA CECILIA (CEN)\nNode: STACECILIAII-NR-ASR92024SZ-10G-PE\nChassis: ASR920\nSerial: CAT2209V0WM (Chassis)"
  },
  {
    "Sites": "STA. ROSA",
    "Latitude": 14.263251,
    "Logitude": 121.057289,
    "Name": "Radius",
    "Road": "South Science Avenue",
    "City": "Biñan",
    "District": "Laguna",
    "Address": "South Science Avenue, Biñan, Laguna",
    "Devices": "ASR920 (1)",
    "Other Details": "STA. ROSA (CEN)\nNode: STAROSAII-NS-ASR92024SZ-10G-PE\nChassis: ASR920\nSerial: FOC2617R7DE (Chassis)"
  },
  {
    "Sites": "SUNSHINE_SQUARE",
    "Latitude": 14.354615,
    "Logitude": 121.061853,
    "Name": "Radius",
    "Road": "National Highway 1",
    "City": "San Pedro",
    "District": "Laguna",
    "Address": "National Highway 1, San Pedro, Laguna",
    "Devices": "ASR920 (1)",
    "Other Details": "SUNSHINE_SQUARE (CEN)\nNode: SUNSHINE_SQUARE-NR-ASR92024SZ-10G-PE\nChassis: ASR920\nSerial: FOC2502NC8R (Chassis)"
  },
  {
    "Sites": "VICTORY_PARK",
    "Latitude": 14.588216,
    "Logitude": 121.175918,
    "Name": "Radius",
    "Road": "Dela Paz Street",
    "City": "Antipolo",
    "District": "Rizal",
    "Address": "Dela Paz Street, Antipolo, Rizal",
    "Devices": "ASR920 (2)",
    "Other Details": "VICTORY_PARK (CEN)\nNode: VICTORY_PARK-NR-ASR92024SZ-10G-PE\nChassis: ASR920\nSerial: FOC2502NC5T (Chassis)\n\nVICTORY_PARK (CEN)\nNode: VITROCLARK-DC-ASR920-10G-PE\nChassis: ASR920\nSerial: CAT2341V2QY (Chassis)"
  },
  {
    "Sites": "VITROCLARK",
    "Latitude": 15.181827,
    "Logitude": 120.52955,
    "Name": "Radius",
    "Road": "Ninoy Aquino Avenue",
    "City": "Mabalacat",
    "District": "Pampanga",
    "Address": "Ninoy Aquino Avenue, Mabalacat, Pampanga",
    "Devices": "ASR920 (2)\nNCS2006-SA (1)",
    "Other Details": "VITROCLARK (CEN)\nNode: VITROCLARK-DC-ASR92024SZ-10G-PE\nChassis: ASR920\nSerial: CAT2341V2QY (Chassis)\n\nVITROCLARK (CEN)\nNode: VITROCLARK-DC-ASR92024SZ-10G-PE-II\nChassis: ASR920\nSerial: FOC2502NBSF (Chassis)\n\nVitroClark (DWDM)\nNode: VitroClark\nChassis: NCS2006-SA\nSerial: SAL1428MUTR (M6-DC)"
  },
  {
    "Sites": "VITROMAKATI",
    "Latitude": 14.564528,
    "Logitude": 121.021987,
    "Name": "Radius",
    "Road": "Nicanor T. Garcia Street",
    "City": "Makati",
    "District": "Southern Manila District",
    "Address": "Nicanor T. Garcia Street, Makati, Southern Manila District",
    "Devices": "ASR920 (1)\nNCS540 (1)\nNCS2006-SA (1)",
    "Other Details": "VITROMAKATI (CEN)\nNode: VITROMAKATI-DC-ASR92024SZ-10G-PE\nChassis: ASR920\nSerial: FOC2617R7DC (Chassis)\n\nVITROMAKATI (CEN)\nNode: VITROMAKATI-DC-NCS540-40G-PE-I\nChassis: NCS540\nSerial: FOC2309PK5Z (Chassis)\n\nVitroMakati (DWDM)\nNode: VitroMakati\nChassis: NCS2006-SA\nSerial: SAL221300YT (Chassis)"
  },
  {
    "Sites": "VITRO PASIG",
    "Latitude": 14.570058,
    "Logitude": 121.070491,
    "Name": "Radius",
    "Road": "Danny Floro Street",
    "City": "Pasig",
    "District": "Eastern Manila District",
    "Address": "Danny Floro Street, Pasig, Eastern Manila District",
    "Devices": "ASR920 (3)\nNCS5540 (1)\nNCS2006-SA (1)",
    "Other Details": "VITRO PASIG (CEN)\nNode: VITROPASIG-DC-ASR92024SZ-10G-PE-I\nChassis: ASR920\nSerial: CAT1917V0A1 (Chassis)\n\nVITRO PASIG (CEN)\nNode: VITROPASIG-DC-ASR92024SZ-10G-PE-II\nChassis: ASR920\nSerial: CAT1909V0KA (Chassis)\n\nVITRO PASIG (CEN)\nNode: VITROPASIG-DC-ASR92024SZ-10G-PE-III\nChassis: ASR920\nSerial: FOC2502NC5B (Chassis)\n\nVITRO PASIG (CEN)\nNode: VITROPASIG-DC-NCS540-40G-PE-IV\nChassis: NCS5540\nSerial: FOC2309PK5P (Chassis)\n\nVitroPasig (DWDM)\nNode: VitroPasig\nChassis: NCS2006-SA\nSerial: SAL2144039U (Chassis)"
  },
  {
    "Sites": "ZETA TOWER",
    "Latitude": 14.591879,
    "Logitude": 121.080743,
    "Name": "Radius",
    "Road": "Not found",
    "City": "Quezon City",
    "District": "Eastern Manila District",
    "Address": "Not found, Quezon City, Eastern Manila District",
    "Devices": "ASR920 (1)",
    "Other Details": "ZETA TOWER (CEN)\nNode: ZETA_TOWER-NR-ASR92024SZ-10G-PE\nChassis: ASR920\nSerial: CAT2341V2ET (Chassis)"
  },
  {
    "Sites": "ZUELLIG",
    "Latitude": 14.557896,
    "Logitude": 121.026657,
    "Name": "Radius",
    "Road": "Makati Avenue",
    "City": "Makati",
    "District": "Southern Manila District",
    "Address": "Makati Avenue, Makati, Southern Manila District",
    "Devices": "ASR920 (1)",
    "Other Details": "ZUELLIG (CEN)\nNode: ZUELLIG-NR-ASR92024SZ-10G-PE\nChassis: ASR920\nSerial: FOC2502NC6C (Chassis)"
  },
  {
    "Sites": "GS BALIUAG",
    "Latitude": 14.948151,
    "Logitude": 120.887755,
    "Name": "Radius",
    "Road": "Not found",
    "City": "Baliwag",
    "District": "Bulacan",
    "Address": "Not found, Baliwag, Bulacan",
    "Devices": "NCS2006-SA (1)",
    "Other Details": "GS BALIUAG (DWDM)\nNode: GS BALIUAG\nChassis: NCS2006-SA\nSerial: SAL1909ABWC (NCS2006-DC)"
  },
  {
    "Sites": "IPC-BGC",
    "Latitude": 14.5548,
    "Logitude": 121.0439,
    "Name": "Radius",
    "Road": "31st Street",
    "City": "Taguig",
    "District": "Southern Manila District",
    "Address": "31st Street, Taguig, Southern Manila District",
    "Devices": "NCS2006-SA (1)",
    "Other Details": "IPC-BGC (DWDM)\nNode: IPC-BGC\nChassis: NCS2006-SA\nSerial: SAL221300YW (Chassis)"
  },
  {
    "Sites": "Malolos",
    "Latitude": 14.853208,
    "Logitude": 120.815911,
    "Name": "Radius",
    "Road": "MacArthur Highway",
    "City": "Malolos",
    "District": "Bulacan",
    "Address": "MacArthur Highway, Malolos, Bulacan",
    "Devices": "NCS2006-SA (1)",
    "Other Details": "Malolos (DWDM)\nNode: Malolos\nChassis: NCS2006-SA\nSerial: ADM2042310Q (PP-4-SMR)"
  },
  {
    "Sites": "MBVC",
    "Latitude": 15.181958,
    "Logitude": 120.529544,
    "Name": "Radius",
    "Road": "Manuel A. Roxas Highway",
    "City": "Mabalacat",
    "District": "Pampanga",
    "Address": "Manuel A. Roxas Highway, Mabalacat, Pampanga",
    "Devices": "NCS2006-SA (1)",
    "Other Details": "MBVC (DWDM)\nNode: MBVC\nChassis: NCS2006-SA\nSerial: SAL2510006H (Chassis)"
  },
  {
    "Sites": "MK2",
    "Latitude": 14.539278,
    "Logitude": 121.020143,
    "Name": "Radius",
    "Road": "Chino Roces Avenue Extension",
    "City": "Makati",
    "District": "Southern Manila District",
    "Address": "Chino Roces Avenue Extension, Makati, Southern Manila District",
    "Devices": "NCS2006-SA (1)\nASR9901 (1)",
    "Other Details": "MK2 (DWDM)\nNode: MK2\nChassis: NCS2006-SA\nSerial: SAL2144039S (Chassis)\n\nMK2 (IGR)\nNode: GLOBE_MK2-DC-ASR9001-IGR\nChassis: ASR9901\nSerial: FOC1732N8W3 (ASR9001-RP)"
  },
  {
    "Sites": "MTP-HO3",
    "Latitude": 14.538815,
    "Logitude": 120.990994,
    "Name": "Radius",
    "Road": "Metrobank Avenue",
    "City": "Pasay",
    "District": "Southern Manila District",
    "Address": "Metrobank Avenue, Pasay, Southern Manila District",
    "Devices": "NCS2006-SA (1)",
    "Other Details": "MTP-HO3 (DWDM)\nNode: MTP-HO3\nChassis: NCS2006-SA\nSerial: FCB2517B0CY (TNCS-2)"
  },
  {
    "Sites": "NewSafetyNet",
    "Latitude": 14.667148,
    "Logitude": 121.032879,
    "Name": "Radius",
    "Road": "Congressional Avenue",
    "City": "Quezon City",
    "District": "Eastern Manila District",
    "Address": "Congressional Avenue, Quezon City, Eastern Manila District",
    "Devices": "NCS2006-SA (1)",
    "Other Details": "NewSafetyNet (DWDM)\nNode: NewSafetyNet\nChassis: NCS2006-SA\nSerial: FIW19090009 ( 40-SMR2-C)"
  },
  {
    "Sites": "VM2",
    "Latitude": 14.56444,
    "Logitude": 121.022887,
    "Name": "Radius",
    "Road": "Nicanor T. Garcia Street",
    "City": "Makati",
    "District": "Southern Manila District",
    "Address": "Nicanor T. Garcia Street, Makati, Southern Manila District",
    "Devices": "ASR9901 (1)",
    "Other Details": "VM2 (IGR)\nNode: VTM-DC-ASR9901-IGR\nChassis: ASR9901\nSerial: FOC2712N779 (ASR-9901-RP )"
  }
]